zpid,Address,zipcode,city,state,latitude,longitude,price,bathrooms,bedrooms,livingArea,homeType,homeStatus,is_bankOwned,isUnmappable,isPreforeclosureAuction,isNonOwnerOccupied,isPremierBuilder,isZillowOwned,currency,country,taxAssessedvalue,lotAreaValue,lotAreaUnit
37385869,1717 Shamrock Ave,20743,Capitol Heights,MD,38.86519,-76.92221,268850.0,3,4,2352.0,SINGLE_FAMILY,FOR_SALE,True,False,False,True,False,False,USD,USA,320900.0,6098.4,sqft
37427610,5709 Ramblewood Ave,20735,Clinton,MD,38.78017,-76.9087,250000.0,2,3,1188.0,SINGLE_FAMILY,FOR_SALE,,False,False,True,False,False,USD,USA,335900.0,10019.0,sqft
37399643,2613 Brooks Dr,20746,Suitland,MD,38.85437,-76.92173,423000.0,3,6,2752.0,SINGLE_FAMILY,FOR_SALE,,False,False,True,False,False,USD,USA,314200.0,0.29416896235078055,acres
37466705,605 Bonnie Meadow Ln,20744,Fort Washington,MD,38.77091,-77.02364,535000.0,3,4,2400.0,SINGLE_FAMILY,FOR_SALE,,False,False,True,False,False,USD,USA,382600.0,0.4660238751147842,acres
37298295,10017 Brookmoor Dr,20901,Silver Spring,MD,39.02012,-76.99986,535000.0,4,4,2038.0,SINGLE_FAMILY,FOR_SALE,,False,False,True,False,False,USD,USA,490867.0,7226.0,sqft
37515649,3002 Lancer Dr,20782,Hyattsville,MD,38.95921,-76.96537,448000.0,2,4,1400.0,SINGLE_FAMILY,FOR_SALE,,False,False,True,False,False,USD,USA,404400.0,5400.0,sqft
37559094,9749 Wichita Ave,20740,College Park,MD,39.01449,-76.91503,318750.0,1,3,1378.0,SINGLE_FAMILY,FOR_SALE,,False,False,True,False,False,USD,USA,359300.0,5632.0,sqft
515758,832 51st St SE,20019,Washington,DC,38.87767,-76.92985,435000.0,3,3,1165.0,SINGLE_FAMILY,FOR_SALE,,False,False,True,False,False,USD,USA,334070.0,3107.0,sqft
37459454,9613 Rooster Ln,20744,Fort Washington,MD,38.75712,-77.0114,424900.0,3,3,2018.0,SINGLE_FAMILY,FOR_SALE,,False,False,True,False,False,USD,USA,397000.0,0.4132231404958678,acres
529056,623 Atlantic St SE,20032,Washington,DC,38.83079,-76.99753,249999.0,2,2,1206.0,SINGLE_FAMILY,FOR_SALE,,False,False,True,False,False,USD,USA,238210.0,2750.0,sqft
37423856,8006 Holly Ln,20735,Clinton,MD,38.74338,-76.868,449900.0,3,3,3176.0,SINGLE_FAMILY,FOR_SALE,,False,False,True,False,False,USD,USA,485100.0,1.14,acres
37295019,2701 Fenimore Rd,20902,Silver Spring,MD,39.04359,-77.05672,399900.0,1,2,1287.0,SINGLE_FAMILY,FOR_SALE,,False,False,True,False,False,USD,USA,316567.0,6374.0,sqft
37506749,7018 Dower House Rd,20772,Upper Marlboro,MD,38.79256,-76.8345,434995.0,3,5,2579.0,SINGLE_FAMILY,FOR_SALE,,False,False,True,False,False,USD,USA,355800.0,10206.0,sqft
37523037,2003 Pelden Rd,20783,Hyattsville,MD,38.99493,-76.9754,499900.0,3,4,1842.0,SINGLE_FAMILY,FOR_SALE,,False,False,True,False,False,USD,USA,385700.0,6761.0,sqft
37400330,3409 Forestville Pl,20747,District Heights,MD,38.8425,-76.87528,320000.0,1,2,754.0,SINGLE_FAMILY,FOR_SALE,,False,False,True,False,False,USD,USA,218300.0,7446.0,sqft
37508921,9304 Grandhaven Ave,20772,Upper Marlboro,MD,38.76108,-76.779,469000.0,3,6,1918.0,SINGLE_FAMILY,FOR_SALE,,False,False,True,False,False,USD,USA,375600.0,0.25415518824609734,acres
37359126,3303 Duck Ct,20772,Upper Marlboro,MD,38.84365,-76.7658,524900.0,4,5,3064.0,SINGLE_FAMILY,FOR_SALE,True,False,False,True,False,False,USD,USA,521800.0,0.2604224058769513,acres
37531478,708 60th Ave,20743,Capitol Heights,MD,38.899323,-76.91488,550000.0,3,4,1980.0,SINGLE_FAMILY,FOR_SALE,,False,False,True,False,False,USD,USA,65800.0,0.25,acres
37549920,4406 Havelock Rd,20706,Lanham,MD,38.94997,-76.85179,375000.0,3,4,1300.0,SINGLE_FAMILY,FOR_SALE,,False,False,True,False,False,USD,USA,299500.0,6887.0,sqft
2054310408,12718 Northcliff Rd,20720,Bowie,MD,38.97682,-76.78419,465000.0,3,4,1138.0,SINGLE_FAMILY,FOR_SALE,,False,False,True,False,False,USD,USA,,0.27954545454545454,acres
37537322,5707 Davey St,20743,Capitol Heights,MD,38.89035,-76.90807,250000.0,2,3,1240.0,SINGLE_FAMILY,FOR_SALE,,False,False,True,False,False,USD,USA,257600.0,4240.0,sqft
37541338,910 Sharma St,20743,Capitol Heights,MD,38.90253,-76.90171,364900.0,4,4,1248.0,SINGLE_FAMILY,FOR_SALE,,False,False,True,False,False,USD,USA,278100.0,4054.0,sqft
37531617,910 Highview Dr,20743,Capitol Heights,MD,38.878284,-76.91404,315000.0,1,2,1191.0,SINGLE_FAMILY,FOR_SALE,,False,False,True,False,False,USD,USA,231600.0,5200.0,sqft
529139,639 Brandywine St SE,20032,Washington,DC,38.8299,-76.99729,299101.0,2,3,1536.0,SINGLE_FAMILY,FOR_SALE,,False,False,True,False,False,USD,USA,323870.0,2420.0,sqft
37469639,703 Leyte Pl,20745,Oxon Hill,MD,38.79005,-76.99734,365000.0,1,3,1270.0,SINGLE_FAMILY,FOR_SALE,,False,False,True,False,False,USD,USA,273800.0,5692.0,sqft
497315,5035 Sargent Rd NE,20017,Washington,DC,38.95151,-76.98926,497000.0,3,3,1548.0,SINGLE_FAMILY,FOR_SALE,,False,False,True,False,False,USD,USA,556330.0,2239.0,sqft
37451326,11004 Rhodenda Pl,20772,Upper Marlboro,MD,38.74954,-76.81664,429900.0,3,4,2348.0,SINGLE_FAMILY,FOR_SALE,,False,False,True,False,False,USD,USA,403400.0,0.5306473829201102,acres
37414643,13102 Eddington Dr,20774,Upper Marlboro,MD,38.88839,-76.77828,390000.0,3,3,2115.0,SINGLE_FAMILY,FOR_SALE,,False,False,True,False,False,USD,USA,417900.0,8055.0,sqft
51974146,5414 Broadmoor St,22315,Alexandria,VA,38.74792,-77.14077,525000.0,2,4,2288.0,SINGLE_FAMILY,FOR_SALE,,False,False,True,False,False,USD,USA,590970.0,10111.0,sqft
494402,761 Kennedy St NE,20011,Washington,DC,38.95709,-76.99505,435000.0,2,3,1088.0,SINGLE_FAMILY,FOR_SALE,,False,False,True,False,False,USD,USA,461770.0,2838.0,sqft
37540036,403 Pepper Mill Dr,20743,Capitol Heights,MD,38.89599,-76.88619,213000.0,2,3,1035.0,SINGLE_FAMILY,FOR_SALE,,False,False,True,False,False,USD,USA,245400.0,7470.0,sqft
37400507,6109 Rayburn Dr,20748,Temple Hills,MD,38.80641,-76.92698,460000.0,3,5,3354.0,SINGLE_FAMILY,FOR_SALE,,False,False,True,False,False,USD,USA,425800.0,10279.0,sqft
37545153,5907 Longfellow St,20737,Riverdale,MD,38.954575,-76.915535,295000.0,1,3,1152.0,SINGLE_FAMILY,FOR_SALE,,False,False,True,False,False,USD,USA,238400.0,4164.0,sqft
37555441,8305 Donoghue Dr,20784,Hyattsville,MD,38.97433,-76.88086,370000.0,3,4,996.0,SINGLE_FAMILY,FOR_SALE,,False,False,True,False,False,USD,USA,310300.0,8678.0,sqft
37520157,6411 Sligo Pkwy,20782,Hyattsville,MD,38.96831,-76.9795,330000.0,2,4,1264.0,SINGLE_FAMILY,FOR_SALE,,False,False,True,False,False,USD,USA,358200.0,5495.0,sqft
37548005,9217 3rd St,20706,Lanham,MD,38.97295,-76.85404,200000.0,2,2,1008.0,SINGLE_FAMILY,FOR_SALE,,False,False,True,False,False,USD,USA,302800.0,7500.0,sqft
37398003,4302 23rd Pkwy,20748,Temple Hills,MD,38.83115,-76.95764,335000.0,3,4,1890.0,SINGLE_FAMILY,FOR_SALE,,False,False,True,False,False,USD,USA,254800.0,4862.0,sqft
37509862,6207 S Osborne Rd,20772,Upper Marlboro,MD,38.80363,-76.81398,549900.0,3,4,4368.0,SINGLE_FAMILY,FOR_SALE,,False,False,True,False,False,USD,USA,678100.0,0.5390036730945822,acres
37543900,5813 Quintana St,20737,Riverdale,MD,38.96153,-76.91538,499000.0,3,3,2116.0,SINGLE_FAMILY,FOR_SALE,,False,False,True,False,False,USD,USA,285800.0,10540.0,sqft
37465285,3420 Lumar Dr,20744,Fort Washington,MD,38.78569,-76.94834,445000.0,3,5,2117.0,SINGLE_FAMILY,FOR_SALE,,False,False,True,False,False,USD,USA,338600.0,0.46949035812672174,acres
37473466,6801 Flagstaff St,20785,Landover,MD,38.92043,-76.88965,445000.0,2,4,972.0,SINGLE_FAMILY,FOR_SALE,,False,False,True,False,False,USD,USA,275900.0,4348.0,sqft
37528851,8208 15th Ave,20783,Hyattsville,MD,38.99314,-76.98273,370000.0,1,3,910.0,SINGLE_FAMILY,FOR_SALE,,False,False,True,False,False,USD,USA,281100.0,6792.0,sqft
37460792,5505 Sachem Dr,20745,Oxon Hill,MD,38.81397,-76.99949,415000.0,2,5,2910.0,SINGLE_FAMILY,FOR_SALE,,False,False,True,False,False,USD,USA,312200.0,8482.0,sqft
37507381,12212 Old Colony Dr,20772,Upper Marlboro,MD,38.77583,-76.78503,440000.0,3,4,2682.0,SINGLE_FAMILY,FOR_SALE,,False,False,True,False,False,USD,USA,375900.0,0.27865013774104685,acres
37545313,5803 Longfellow St,20737,Riverdale,MD,38.95484,-76.91624,399900.0,2,5,1860.0,SINGLE_FAMILY,FOR_SALE,,False,False,True,False,False,USD,USA,276600.0,5606.0,sqft
51925888,5845 Monticello Rd,22303,Alexandria,VA,38.7915,-77.07832,550000.0,2,2,816.0,SINGLE_FAMILY,FOR_SALE,,False,False,True,False,False,USD,USA,500720.0,3720.0,sqft
37550372,6115 85th Pl,20784,Hyattsville,MD,38.96816,-76.87199,440000.0,2,4,1610.0,SINGLE_FAMILY,FOR_SALE,,False,False,True,False,False,USD,USA,322500.0,6210.0,sqft
37316662,8508 Glenview Ave,20912,Takoma Park,MD,38.995857,-77.00013,495000.0,2,3,1394.0,SINGLE_FAMILY,FOR_SALE,,False,False,True,False,False,USD,USA,379000.0,5767.0,sqft
37541134,7806 Pacer Ct,20785,Landover,MD,38.89957,-76.86951,390000.0,3,4,1904.0,SINGLE_FAMILY,FOR_SALE,,False,False,True,False,False,USD,USA,296800.0,10609.0,sqft
37500390,5523 Glen Ave,20706,Lanham,MD,38.96629,-76.81694,499999.0,2,4,2200.0,SINGLE_FAMILY,FOR_SALE,,False,False,True,False,False,USD,USA,410300.0,7500.0,sqft
37361745,14163 Spring Branch Dr,20772,Upper Marlboro,MD,38.81742,-76.76101,379900.0,2,3,816.0,SINGLE_FAMILY,FOR_SALE,,False,False,True,False,False,USD,USA,330900.0,6510.0,sqft
37519497,2007 Chillum Rd,20782,Hyattsville,MD,38.95329,-76.97604,525000.0,3,3,2182.0,SINGLE_FAMILY,FOR_SALE,,False,False,True,False,False,USD,USA,413700.0,7745.0,sqft
37356691,4409 72nd Ave,20784,Hyattsville,MD,38.94463,-76.88978,275000.0,2,3,960.0,SINGLE_FAMILY,FOR_SALE,,False,False,True,False,False,USD,USA,263300.0,7200.0,sqft
37508823,11911 Berrybrook Ter,20772,Upper Marlboro,MD,38.76125,-76.799,450000.0,4,4,2820.0,SINGLE_FAMILY,FOR_SALE,,False,False,True,False,False,USD,USA,380000.0,0.3774793388429752,acres
37564811,7203 Adelphi Rd,20782,Hyattsville,MD,38.97918,-76.95413,477000.0,3,5,2451.0,SINGLE_FAMILY,FOR_SALE,True,False,False,True,False,False,USD,USA,486300.0,0.27552800734618915,acres
514700,5732 Southern Ave SE,20019,Washington,DC,38.8867,-76.91766,364900.0,2,2,1455.0,SINGLE_FAMILY,FOR_SALE,,False,False,True,False,False,USD,USA,333850.0,1698.0,sqft
51817626,3119 Graydon St,22042,Falls Church,VA,38.86467,-77.17682,550000.0,2,4,1353.0,SINGLE_FAMILY,FOR_SALE,,False,False,True,False,False,USD,USA,475560.0,7991.0,sqft
37346369,4808 Lexington Ave,20705,Beltsville,MD,39.04399,-76.90891,445000.0,3,5,1092.0,SINGLE_FAMILY,FOR_SALE,,False,False,True,False,False,USD,USA,374400.0,5040.0,sqft
37515453,5822 32nd Ave,20782,Hyattsville,MD,38.96239,-76.96167,499500.0,2,4,1482.0,SINGLE_FAMILY,FOR_SALE,,False,False,True,False,False,USD,USA,355300.0,5871.0,sqft
37423841,5604 Avon Ct,20748,Temple Hills,MD,38.79491,-76.91145,291000.0,2,3,1296.0,SINGLE_FAMILY,FOR_SALE,True,False,False,True,False,False,USD,USA,318300.0,0.26611570247933886,acres
37456171,8316 Bock Rd,20744,Fort Washington,MD,38.77617,-76.95832,340000.0,1,3,1644.0,SINGLE_FAMILY,FOR_SALE,,False,False,True,False,False,USD,USA,292400.0,10607.0,sqft
514234,257 56th St NE,20019,Washington,DC,38.89255,-76.92116,379000.0,2,2,800.0,SINGLE_FAMILY,FOR_SALE,,False,False,True,False,False,USD,USA,243500.0,2838.0,sqft
37546073,5629 Ellerbie Ct,20706,Lanham,MD,38.96237,-76.84234,399900.0,2,3,1161.0,SINGLE_FAMILY,FOR_SALE,,False,False,True,False,False,USD,USA,298400.0,6547.0,sqft
37462351,7514 Blanford Dr,20744,Fort Washington,MD,38.78612,-76.96529,450900.0,3,4,1718.0,SINGLE_FAMILY,FOR_SALE,,False,False,True,False,False,USD,USA,330100.0,10260.0,sqft
37549253,7805 Glenarden Pkwy,20706,Lanham,MD,38.93713,-76.86838,349000.0,2,4,1180.0,SINGLE_FAMILY,FOR_SALE,,False,False,True,False,False,USD,USA,236600.0,6969.6,sqft
37540949,1808 61st Ave,20785,Landover,MD,38.91431,-76.91339,450000.0,2,4,2696.0,SINGLE_FAMILY,FOR_SALE,,False,False,True,False,False,USD,USA,382900.0,8106.0,sqft
37550604,9323 Wellington St,20706,Lanham,MD,38.97665,-76.85072,450000.0,2,4,1800.0,SINGLE_FAMILY,FOR_SALE,,False,False,True,False,False,USD,USA,343400.0,10501.0,sqft
524747,2911 30th St SE,20020,Washington,DC,38.85431,-76.96593,425000.0,2,3,1792.0,SINGLE_FAMILY,FOR_SALE,,False,False,True,False,False,USD,USA,323990.0,3890.0,sqft
37549982,9705 Canary Ct,20774,Upper Marlboro,MD,38.93624,-76.83839,474000.0,3,4,2032.0,SINGLE_FAMILY,FOR_SALE,,False,False,True,False,False,USD,USA,409400.0,9815.0,sqft
37483183,30 Herrington Dr,20774,Upper Marlboro,MD,38.89496,-76.80871,499900.0,3,6,2225.0,SINGLE_FAMILY,FOR_SALE,,False,False,True,False,False,USD,USA,321100.0,9406.0,sqft
37511562,9100 Fairgreen Ct,20772,Upper Marlboro,MD,38.7636,-76.8029,425000.0,3,4,2388.0,SINGLE_FAMILY,FOR_SALE,,False,False,True,False,False,USD,USA,419900.0,0.38259871441689625,acres
37129341,9911 Dilston Rd,20903,Silver Spring,MD,39.01821,-76.97845,450000.0,2,3,1617.0,SINGLE_FAMILY,FOR_SALE,,False,False,True,False,False,USD,USA,323800.0,6270.0,sqft
37523289,8305 20th Ave,20783,Hyattsville,MD,38.99433,-76.97229,430000.0,3,4,1891.0,SINGLE_FAMILY,FOR_SALE,,False,False,True,False,False,USD,USA,377700.0,9283.0,sqft
37453702,10302 Duke Of Wellington Ct,20772,Upper Marlboro,MD,38.74888,-76.81563,330000.0,3,3,1164.0,SINGLE_FAMILY,FOR_SALE,,False,False,True,False,False,USD,USA,335000.0,0.32339302112029383,acres
37357190,7220 Oliver St,20706,Lanham,MD,38.9573,-76.88836,375000.0,2,5,950.0,SINGLE_FAMILY,FOR_SALE,,False,False,True,False,False,USD,USA,281900.0,6133.0,sqft
37392593,6008 Tipton Dr,20748,Temple Hills,MD,38.80698,-76.92269,420000.0,4,4,1125.0,SINGLE_FAMILY,FOR_SALE,,False,False,True,False,False,USD,USA,235900.0,0.2580578512396694,acres
37451933,10405 Beaver Knoll Dr,20772,Upper Marlboro,MD,38.75188,-76.82509,479900.0,3,4,2257.0,SINGLE_FAMILY,FOR_SALE,,False,False,True,False,False,USD,USA,462600.0,0.2648989898989899,acres
37469085,5528 Helmont Dr,20745,Oxon Hill,MD,38.8122,-76.98052,408000.0,2,3,1135.0,SINGLE_FAMILY,FOR_SALE,,False,False,True,False,False,USD,USA,340200.0,9508.0,sqft
515382,5500 D St SE,20019,Washington,DC,38.88306,-76.92273,374999.0,2,3,1360.0,SINGLE_FAMILY,FOR_SALE,,False,False,True,False,False,USD,USA,325180.0,4000.0,sqft
37480402,7215 E Ridge Dr,20785,Landover,MD,38.91837,-76.88167,424900.0,2,4,2081.0,SINGLE_FAMILY,FOR_SALE,,False,False,True,False,False,USD,USA,301800.0,6250.0,sqft
37478565,7902 Tyler St,20706,Lanham,MD,38.9362,-76.8723,439950.0,3,5,999.0,SINGLE_FAMILY,FOR_SALE,,False,False,True,False,False,USD,USA,289000.0,6544.0,sqft
37430128,8704 Cushman Dr,20735,Clinton,MD,38.76976,-76.91772,429900.0,3,5,2088.0,SINGLE_FAMILY,FOR_SALE,,False,False,True,False,False,USD,USA,404300.0,8778.0,sqft
37555039,7204 Annapolis Rd,20784,Hyattsville,MD,38.94759,-76.89116,389000.0,2,4,1080.0,SINGLE_FAMILY,FOR_SALE,,False,False,True,False,False,USD,USA,291500.0,6559.0,sqft
37355829,5403 Tilden Rd,20710,Bladensburg,MD,38.94166,-76.92609,305000.0,3,4,1656.0,SINGLE_FAMILY,FOR_SALE,,False,False,True,False,False,USD,USA,296900.0,6000.0,sqft
37466348,200 N Huron Dr,20745,Oxon Hill,MD,38.813362,-77.005486,315000.0,2,2,1584.0,SINGLE_FAMILY,FOR_SALE,,False,False,True,False,False,USD,USA,302300.0,7400.0,sqft
37549788,10003 Old Franklin Ave,20706,Lanham,MD,38.97061,-76.83151,435000.0,2,4,2500.0,SINGLE_FAMILY,FOR_SALE,,False,False,True,False,False,USD,USA,332000.0,0.42316345270890726,acres
37289968,10007 Gardiner Ave,20902,Silver Spring,MD,39.01958,-77.05025,490000.0,2,3,1148.0,SINGLE_FAMILY,FOR_SALE,,False,False,True,False,False,USD,USA,434100.0,7128.0,sqft
37466613,502 Potomac Valley Dr,20744,Fort Washington,MD,38.77241,-77.01924,399999.0,3,4,2100.0,SINGLE_FAMILY,FOR_SALE,,False,False,True,False,False,USD,USA,401700.0,10130.0,sqft
513651,709 56th Pl NE,20019,Washington,DC,38.90001,-76.91941,439000.0,1,3,1534.0,SINGLE_FAMILY,FOR_SALE,,False,False,True,False,False,USD,USA,308140.0,4311.0,sqft
37556934,230 Lastner Ln,20770,Greenbelt,MD,39.0095,-76.8839,479000.0,3,3,1800.0,SINGLE_FAMILY,FOR_SALE,,False,False,True,False,False,USD,USA,418400.0,8569.0,sqft
51920786,3907 Elmwood Dr,22303,Alexandria,VA,38.80104,-77.10014,525000.0,2,4,1576.0,SINGLE_FAMILY,FOR_SALE,,False,False,True,False,False,USD,USA,503830.0,0.2967860422405877,acres
37553694,7310 Longbranch Dr,20784,Hyattsville,MD,38.96806,-76.8883,489000.0,3,5,1968.0,SINGLE_FAMILY,FOR_SALE,,False,False,True,False,False,USD,USA,321200.0,7577.0,sqft
37341588,6511 Highland Ave,20912,Takoma Park,MD,38.97065,-77.00384,550000.0,1,2,514.0,SINGLE_FAMILY,FOR_SALE,,False,False,True,False,False,USD,USA,417567.0,7498.0,sqft
37356926,6914 Furman Pkwy,20737,Riverdale,MD,38.95741,-76.89944,350000.0,2,5,1674.0,SINGLE_FAMILY,FOR_SALE,,False,False,True,False,False,USD,USA,297400.0,6258.0,sqft
37427202,7606 Allentown Rd,20744,Fort Washington,MD,38.78535,-76.93957,449999.0,3,4,1500.0,SINGLE_FAMILY,FOR_SALE,,False,False,True,False,False,USD,USA,201400.0,0.46735537190082643,acres
37394673,4306 Ranger Ave,20748,Temple Hills,MD,38.82958,-76.93743,524999.0,4,3,2176.0,SINGLE_FAMILY,FOR_SALE,,False,False,True,False,False,USD,USA,384400.0,0.2585858585858586,acres
37522932,4415 34th St,20722,Brentwood,MD,38.94539,-76.96191,334990.0,1,2,800.0,SINGLE_FAMILY,FOR_SALE,,False,False,True,False,False,USD,USA,257000.0,,
37530523,7725 Willow Hill Dr,20785,Landover,MD,38.89719,-76.86978,457600.0,4,6,3115.0,SINGLE_FAMILY,FOR_SALE,True,False,False,True,False,False,USD,USA,360400.0,0.26955922865013776,acres
37431123,9310 Linhurst Dr,20735,Clinton,MD,38.76057,-76.8557,399899.0,2,4,1560.0,SINGLE_FAMILY,FOR_SALE,,False,False,True,False,False,USD,USA,283100.0,0.28971533516988063,acres
88800401,124 57th Pl SE,20019,Washington,DC,38.88741,-76.91876,465000.0,4,3,2580.0,SINGLE_FAMILY,FOR_SALE,True,False,False,True,False,False,USD,USA,618710.0,6072.0,sqft
516440,1187 46th Pl SE,20019,Washington,DC,38.87786,-76.9322,418000.0,2,3,1056.0,SINGLE_FAMILY,FOR_SALE,,False,False,True,False,False,USD,USA,296620.0,2813.0,sqft
37530997,518 68th Pl,20743,Capitol Heights,MD,38.89432,-76.90673,340000.0,2,4,1092.0,SINGLE_FAMILY,FOR_SALE,,False,False,True,False,False,USD,USA,288900.0,5250.0,sqft
37554862,8910 Scheurer St,20774,Upper Marlboro,MD,38.93497,-76.8528,335000.0,2,4,1080.0,SINGLE_FAMILY,FOR_SALE,,False,False,True,False,False,USD,USA,272500.0,8502.0,sqft
37563262,9727 53rd Ave,20740,College Park,MD,39.01258,-76.91305,448900.0,2,3,1603.0,SINGLE_FAMILY,FOR_SALE,,False,False,True,False,False,USD,USA,304700.0,5500.0,sqft
37568607,5607 Seminole St,20740,College Park,MD,38.99499,-76.91702,399000.0,2,4,1212.0,SINGLE_FAMILY,FOR_SALE,,False,False,True,False,False,USD,USA,277100.0,6969.6,sqft
511337,4615 Clay St NE,20019,Washington,DC,38.89356,-76.93593,499900.0,3,3,1541.0,SINGLE_FAMILY,FOR_SALE,,False,False,True,False,False,USD,USA,412260.0,2531.0,sqft
37504410,9909 Ridge St,20706,Lanham,MD,38.97244,-76.81784,430000.0,2,4,834.0,SINGLE_FAMILY,FOR_SALE,,False,False,True,False,False,USD,USA,352400.0,6750.0,sqft
37506330,4600 Rockbridge Ct,20772,Upper Marlboro,MD,38.82732,-76.79299,540000.0,3,4,2567.0,SINGLE_FAMILY,FOR_SALE,,False,False,True,False,False,USD,USA,525100.0,9625.0,sqft
37463702,5732 Joan Ln,20748,Temple Hills,MD,38.80959,-76.9551,399900.0,3,4,2001.0,SINGLE_FAMILY,FOR_SALE,,False,False,True,False,False,USD,USA,272000.0,0.3191230486685032,acres
37395360,6509 Kipling Pkwy,20747,District Heights,MD,38.85387,-76.89459,485000.0,2,5,2348.0,SINGLE_FAMILY,FOR_SALE,,False,False,True,False,False,USD,USA,226400.0,7000.0,sqft
37464968,4616 Birchtree Ln,20748,Temple Hills,MD,38.82597,-76.96905,465000.0,4,4,1728.0,SINGLE_FAMILY,FOR_SALE,,False,False,True,False,False,USD,USA,326900.0,0.2730257116620753,acres
37383860,5901 Center Dr,20748,Temple Hills,MD,38.80958,-76.91678,515000.0,3,3,1326.0,SINGLE_FAMILY,FOR_SALE,,False,False,True,False,False,USD,USA,274500.0,2.2516,acres
495049,404 Jefferson St NE,20011,Washington,DC,38.95535,-76.99913,479500.0,2,3,1540.0,SINGLE_FAMILY,FOR_SALE,,False,False,True,False,False,USD,USA,464270.0,2550.0,sqft
37390463,1807 Nova Ave,20743,Capitol Heights,MD,38.86624,-76.93705,410000.0,2,6,1395.0,SINGLE_FAMILY,FOR_SALE,,False,False,True,False,False,USD,USA,215500.0,5162.0,sqft
529701,79 Darrington St SW,20032,Washington,DC,38.82717,-77.00952,269000.0,1,3,1016.0,SINGLE_FAMILY,FOR_SALE,,False,False,True,False,False,USD,USA,259840.0,2461.0,sqft
51911530,5811 Atteentee Rd,22150,Springfield,VA,38.792072,-77.19926,549000.0,1,3,1220.0,SINGLE_FAMILY,FOR_SALE,,False,False,True,False,False,USD,USA,514160.0,0.33321854912764004,acres
37540617,300 Carmody Hills Dr,20743,Capitol Heights,MD,38.89581,-76.88953,399900.0,3,5,2155.0,SINGLE_FAMILY,FOR_SALE,,False,False,True,False,False,USD,USA,250900.0,7884.0,sqft
37510015,9707 Muirfield Dr,20772,Upper Marlboro,MD,38.75596,-76.79767,292000.0,2,3,1248.0,SINGLE_FAMILY,FOR_SALE,,False,False,True,False,False,USD,USA,344600.0,0.3506887052341598,acres
37512320,7010 Dower House Rd,20772,Upper Marlboro,MD,38.79335,-76.835,453500.0,3,5,1354.0,SINGLE_FAMILY,FOR_SALE,,False,False,True,False,False,USD,USA,368700.0,10000.0,sqft
37350462,4115 Fairfax St,20784,Hyattsville,MD,38.94094,-76.89027,399900.0,3,3,1647.0,SINGLE_FAMILY,FOR_SALE,,False,False,True,False,False,USD,USA,299500.0,7200.0,sqft
37427481,8912 Ballard Ln,20735,Clinton,MD,38.76766,-76.88151,450000.0,3,5,1544.0,SINGLE_FAMILY,FOR_SALE,,False,False,True,False,False,USD,USA,307200.0,0.4591368227731864,acres
37551339,6412 Kaslo St,20784,Hyattsville,MD,38.97149,-76.884,410000.0,2,4,960.0,SINGLE_FAMILY,FOR_SALE,,False,False,True,False,False,USD,USA,306700.0,9257.0,sqft
37566646,6104 Quebec Pl,20740,College Park,MD,38.99388,-76.91044,425000.0,2,3,2112.0,SINGLE_FAMILY,FOR_SALE,,False,False,True,False,False,USD,USA,350200.0,6534.0,sqft
37289303,2116 Cascade Rd,20902,Silver Spring,MD,39.02786,-77.0452,549900.0,1,3,1305.0,SINGLE_FAMILY,FOR_SALE,,False,False,True,False,False,USD,USA,399333.0,7036.0,sqft
524602,3434 24th St SE,20020,Washington,DC,38.84696,-76.97031,400000.0,2,3,1200.0,SINGLE_FAMILY,FOR_SALE,,False,False,True,False,False,USD,USA,295220.0,2012.0,sqft
37537446,6240 Addison Rd,20743,Capitol Heights,MD,38.88842,-76.89839,365000.0,2,3,1280.0,SINGLE_FAMILY,FOR_SALE,,False,False,True,False,False,USD,USA,248600.0,0.5756198347107438,acres
37518076,2313 Amherst Rd,20783,Hyattsville,MD,38.97258,-76.97044,425000.0,3,4,1548.0,SINGLE_FAMILY,FOR_SALE,,False,False,True,False,False,USD,USA,358600.0,6030.0,sqft
37508204,7110 Dower House Rd,20772,Upper Marlboro,MD,38.79169,-76.83287,400000.0,3,3,1384.0,SINGLE_FAMILY,FOR_SALE,,False,False,True,False,False,USD,USA,375300.0,0.30883838383838386,acres
37290010,9015 Miles St,20901,Silver Spring,MD,39.00408,-76.99042,450000.0,2,4,1490.0,SINGLE_FAMILY,FOR_SALE,,False,False,True,False,False,USD,USA,353200.0,6323.0,sqft
37354280,6508 Maureen Ct,20785,Landover,MD,38.92996,-76.90211,419900.0,3,3,1206.0,SINGLE_FAMILY,FOR_SALE,,False,False,True,False,False,USD,USA,348300.0,7164.0,sqft
37533775,5316 Cumberland St,20743,Capitol Heights,MD,38.88196,-76.91461,415000.0,3,5,2624.0,SINGLE_FAMILY,FOR_SALE,,False,False,True,False,False,USD,USA,281100.0,8000.0,sqft
37480632,12004 Cleaver Dr,20721,Bowie,MD,38.90414,-76.79726,439000.0,2,4,994.0,SINGLE_FAMILY,FOR_SALE,,False,False,True,False,False,USD,USA,299900.0,0.32086776859504135,acres
37417569,12604 Sholton St,20774,Upper Marlboro,MD,38.89942,-76.78706,399900.0,4,5,1352.0,SINGLE_FAMILY,FOR_SALE,,False,False,True,False,False,USD,USA,388400.0,8663.0,sqft
51844129,3252 Wayne Rd,22042,Falls Church,VA,38.85722,-77.18558,525000.0,1,3,864.0,SINGLE_FAMILY,FOR_SALE,,False,False,True,False,False,USD,USA,438980.0,7204.0,sqft
37563593,6202 Seminole Pl,20740,College Park,MD,38.99521,-76.90696,399900.0,2,3,988.0,SINGLE_FAMILY,FOR_SALE,,False,False,True,False,False,USD,USA,406900.0,6660.0,sqft
37449944,10700 Wembrough Pl,20623,Cheltenham,MD,38.74272,-76.82485,489900.0,3,4,2059.0,SINGLE_FAMILY,FOR_SALE,True,False,False,True,False,False,USD,USA,408000.0,0.3283287419651056,acres
37386475,4009 Forest Grove Dr,20746,Suitland,MD,38.8338,-76.89473,275000.0,1,3,704.0,SINGLE_FAMILY,FOR_SALE,,False,False,True,False,False,USD,USA,180600.0,4775.0,sqft
37395340,6602 Halleck St,20747,District Heights,MD,38.85591,-76.89265,470000.0,3,4,1856.0,SINGLE_FAMILY,FOR_SALE,,False,False,True,False,False,USD,USA,404500.0,7000.0,sqft
37492389,8411 Church Ln,20720,Bowie,MD,39.00501,-76.789116,499500.0,3,4,1196.0,SINGLE_FAMILY,FOR_SALE,,False,False,True,False,False,USD,USA,352600.0,0.4850550964187328,acres
37522936,2114 Beechwood Rd,20783,Hyattsville,MD,38.97699,-76.97389,538000.0,2,4,1964.0,SINGLE_FAMILY,FOR_SALE,,False,False,True,False,False,USD,USA,341400.0,8050.0,sqft
37538142,702 Carlough St,20785,Landover,MD,38.89902,-76.88427,499900.0,3,3,1844.0,SINGLE_FAMILY,FOR_SALE,,False,False,True,False,False,USD,USA,371400.0,9724.0,sqft
37471185,8303 Eugenia St,20744,Fort Washington,MD,38.7755,-77.0037,430000.0,3,4,1296.0,SINGLE_FAMILY,FOR_SALE,,False,False,True,False,False,USD,USA,343500.0,8754.0,sqft
37380351,2413 Gaither St,20748,Temple Hills,MD,38.8368,-76.95682,360000.0,2,3,1315.0,SINGLE_FAMILY,FOR_SALE,,False,False,True,False,False,USD,USA,276600.0,5800.0,sqft
37352588,6703 Dorman St,20784,Hyattsville,MD,38.93338,-76.89625,425000.0,2,5,962.0,SINGLE_FAMILY,FOR_SALE,,False,False,True,False,False,USD,USA,258300.0,6830.0,sqft
37382851,2402 Kenton Pl,20748,Temple Hills,MD,38.83327,-76.95479,365000.0,3,3,1827.0,SINGLE_FAMILY,FOR_SALE,,False,False,True,False,False,USD,USA,221200.0,4957.0,sqft
37522199,2004 Hayden Rd,20782,Hyattsville,MD,38.95017,-76.97623,349000.0,1,3,1912.0,SINGLE_FAMILY,FOR_SALE,,False,False,True,False,False,USD,USA,432000.0,5400.0,sqft
37536197,1203 Gondar Ave,20785,Landover,MD,38.90619,-76.89425,300000.0,2,3,1248.0,SINGLE_FAMILY,FOR_SALE,,False,False,True,False,False,USD,USA,337400.0,8250.0,sqft
37507143,7305 Havre Turn,20772,Upper Marlboro,MD,38.79122,-76.78937,399900.0,3,3,1560.0,SINGLE_FAMILY,FOR_SALE,True,False,False,True,False,False,USD,USA,337500.0,10000.0,sqft
37523322,1624 Drexel St,20912,Takoma Park,MD,38.97847,-76.98191,434900.0,2,3,1075.0,SINGLE_FAMILY,FOR_SALE,,False,False,True,False,False,USD,USA,271700.0,6900.0,sqft
37461020,1203 Crisfield Dr,20745,Oxon Hill,MD,38.80962,-76.99069,364999.0,3,3,1000.0,SINGLE_FAMILY,FOR_SALE,,False,False,True,False,False,USD,USA,291200.0,7365.0,sqft
37311155,1304 Caddington Ave,20901,Silver Spring,MD,39.03388,-77.02162,550000.0,3,4,1440.0,SINGLE_FAMILY,FOR_SALE,,False,False,True,False,False,USD,USA,408967.0,7116.0,sqft
37561701,6210 Seminole Pl,20740,College Park,MD,38.99508,-76.90613,465000.0,2,4,1788.0,SINGLE_FAMILY,FOR_SALE,,False,False,True,False,False,USD,USA,348200.0,6660.0,sqft
37472658,107 Colton St,20774,Upper Marlboro,MD,38.88997,-76.81218,425000.0,3,4,2225.0,SINGLE_FAMILY,FOR_SALE,,False,False,True,False,False,USD,USA,325800.0,0.25381083562901746,acres
51956633,6949 Westhampton Dr,22307,Alexandria,VA,38.76624,-77.07587,539900.0,2,3,1344.0,SINGLE_FAMILY,FOR_SALE,,False,False,True,False,False,USD,USA,404760.0,4530.0,sqft
37434450,8301 Deborah St,20735,Clinton,MD,38.77595,-76.86565,475000.0,3,5,2394.0,SINGLE_FAMILY,FOR_SALE,,False,False,True,False,False,USD,USA,340700.0,10827.0,sqft
37394785,6201 Tamara Ct,20746,Suitland,MD,38.82432,-76.90022,424899.0,4,3,2298.0,SINGLE_FAMILY,FOR_SALE,,False,False,True,False,False,USD,USA,271200.0,6310.0,sqft
37380281,1514 Shamrock Ave,20743,Capitol heights,MD,38.86787,-76.91857,410000.0,3,4,2100.0,SINGLE_FAMILY,FOR_SALE,,False,False,True,False,False,USD,USA,400.0,4753.0,sqft
37415608,101 Park Pl,20774,Upper Marlboro,MD,38.89389,-76.79378,449900.0,4,5,2277.0,SINGLE_FAMILY,FOR_SALE,,False,False,True,False,False,USD,USA,430900.0,0.3851010101010101,acres
37458813,7704 Locust Ln,20744,Fort Washington,MD,38.78314,-76.96237,465000.0,3,3,1344.0,SINGLE_FAMILY,FOR_SALE,,False,False,True,False,False,USD,USA,316600.0,0.7874196510560147,acres
37564995,5004 Eutaw Pl,20740,College Park,MD,39.0054,-76.92134,509900.0,3,4,1837.0,SINGLE_FAMILY,FOR_SALE,,False,False,True,False,False,USD,USA,417100.0,6570.0,sqft
37461373,129 N Huron Dr,20745,Oxon Hill,MD,38.8146,-77.00404,324900.0,1,4,1170.0,SINGLE_FAMILY,FOR_SALE,True,False,False,True,False,False,USD,USA,263600.0,7500.0,sqft
37518840,1604 Amherst Rd,20783,Hyattsville,MD,38.9757,-76.98163,459900.0,3,4,1450.0,SINGLE_FAMILY,FOR_SALE,,False,False,True,False,False,USD,USA,314500.0,7935.0,sqft
37540430,728 Opus Ave,20743,Capitol Heights,MD,38.8783,-76.91671,344999.0,2,4,1629.0,SINGLE_FAMILY,FOR_SALE,,False,False,True,False,False,USD,USA,227500.0,4000.0,sqft
37394589,2713 Fairlawn St,20748,Temple Hills,MD,38.84042,-76.95312,379000.0,2,3,1826.0,SINGLE_FAMILY,FOR_SALE,,False,False,True,False,False,USD,USA,367300.0,0.2855371900826446,acres
37426780,4506 Payne Dr,20744,Fort Washington,MD,38.78637,-76.93359,449900.0,3,4,2250.0,SINGLE_FAMILY,FOR_SALE,,False,False,True,False,False,USD,USA,339100.0,10842.0,sqft
2066652761,7311 Webster Turn,20744,Fort Washington,MD,38.78852,-76.94178,419990.0,3,4,1164.0,SINGLE_FAMILY,FOR_SALE,,False,False,True,False,False,USD,USA,,10426.0,sqft
37510020,2716 Sansbury Rd,20774,Upper Marlboro,MD,38.8519,-76.84554,395000.0,3,5,1232.0,SINGLE_FAMILY,FOR_SALE,,False,False,True,False,False,USD,USA,352500.0,0.6747015610651974,acres
37402292,1802 Gould Dr,20747,District Heights,MD,38.86612,-76.88469,479999.0,4,4,1980.0,SINGLE_FAMILY,FOR_SALE,,False,False,True,False,False,USD,USA,357700.0,6040.0,sqft
37469121,7717 Loudon Dr,20744,Fort Washington,MD,38.78386,-76.96868,439000.0,3,4,1936.0,SINGLE_FAMILY,FOR_SALE,,False,False,True,False,False,USD,USA,356400.0,0.5408631772268135,acres
37531853,5000 Doppler St,20743,Capitol Heights,MD,38.88327,-76.92024,349900.0,2,5,1008.0,SINGLE_FAMILY,FOR_SALE,,False,False,True,False,False,USD,USA,210600.0,4280.0,sqft
37468616,505 Hurtt Pl,20744,Fort Washington,MD,38.77464,-77.00014,445000.0,3,4,2469.0,SINGLE_FAMILY,FOR_SALE,,False,False,True,False,False,USD,USA,457700.0,0.29070247933884297,acres
51926287,6018 Park Pl,22303,Alexandria,VA,38.78618,-77.07349,524000.0,1,4,1152.0,SINGLE_FAMILY,FOR_SALE,,False,False,True,False,False,USD,USA,507570.0,6750.0,sqft
37311017,815 Malta Ln,20901,Silver Spring,MD,39.03843,-77.01493,540000.0,3,3,1440.0,SINGLE_FAMILY,FOR_SALE,,False,False,True,False,False,USD,USA,375467.0,7726.0,sqft
37508879,9316 Fairhaven Ave,20772,Upper Marlboro,MD,38.76097,-76.79654,480000.0,3,4,2739.0,SINGLE_FAMILY,FOR_SALE,,False,False,True,False,False,USD,USA,365700.0,0.3453627180899908,acres
37520790,7103 21st Ave,20783,Hyattsville,MD,38.97731,-76.97576,525000.0,3,5,2376.0,SINGLE_FAMILY,FOR_SALE,,False,False,True,False,False,USD,USA,457000.0,8028.0,sqft
37472811,9509 Vermell Pl,20774,Upper Marlboro,MD,38.87328,-76.84098,445000.0,3,4,1108.0,SINGLE_FAMILY,FOR_SALE,,False,False,True,False,False,USD,USA,359700.0,6873.0,sqft
37487009,2313 Romney Ct,20785,Landover,MD,38.92088,-76.87346,300000.0,1,3,885.0,SINGLE_FAMILY,FOR_SALE,,False,False,True,False,False,USD,USA,194000.0,5015.0,sqft
37509018,12605 Arcus Ct,20772,Upper Marlboro,MD,38.7569,-76.78936,529950.0,3,4,2016.0,SINGLE_FAMILY,FOR_SALE,,False,False,True,False,False,USD,USA,459300.0,0.683287419651056,acres
37479978,615 Pearse Ln,20774,Upper Marlboro,MD,38.88102,-76.84069,449900.0,2,4,1672.0,SINGLE_FAMILY,FOR_SALE,,False,False,True,False,False,USD,USA,253300.0,0.3782139577594123,acres
37557462,10403 Rutland Pl,20783,Hyattsville,MD,39.02316,-76.9592,480000.0,3,6,1178.0,SINGLE_FAMILY,FOR_SALE,,False,False,True,False,False,USD,USA,388600.0,10744.0,sqft
37350143,5504 Volta Ave,20710,Bladensburg,MD,38.94248,-76.92402,369900.0,2,2,870.0,SINGLE_FAMILY,FOR_SALE,,False,False,True,False,False,USD,USA,247800.0,6328.0,sqft
37487067,7205 Flagstaff St,20785,Landover,MD,38.91978,-76.88232,325000.0,2,3,1170.0,SINGLE_FAMILY,FOR_SALE,,False,False,True,False,False,USD,USA,285600.0,5000.0,sqft
37425736,6202 Hellen Lee Dr,20735,Clinton,MD,38.7534,-76.89939,424900.0,3,4,2297.0,SINGLE_FAMILY,FOR_SALE,,False,False,True,False,False,USD,USA,340400.0,0.2599173553719008,acres
37552286,3202 Amador Dr,20785,Landover,MD,38.93314,-76.85692,469900.0,3,4,1228.0,SINGLE_FAMILY,FOR_SALE,,False,False,True,False,False,USD,USA,326700.0,0.31235078053259874,acres
37420270,1 Rosebud Ct,20774,Upper Marlboro,MD,38.899902,-76.77175,368500.0,2,2,1306.0,SINGLE_FAMILY,FOR_SALE,True,False,False,True,False,False,USD,USA,379900.0,4069.0,sqft
37320460,10911 Breewood Ct,20901,Silver Spring,MD,39.03441,-77.02474,535000.0,3,3,1701.0,SINGLE_FAMILY,FOR_SALE,,False,False,True,False,False,USD,USA,361400.0,7589.0,sqft
528733,521 Foxhall Pl SE,20032,Washington,DC,38.83344,-76.99786,440000.0,2,4,1775.0,SINGLE_FAMILY,FOR_SALE,,False,False,True,False,False,USD,USA,383680.0,3125.0,sqft
37536893,6307 Carrington Ct,20743,Capitol Heights,MD,38.90556,-76.89946,219900.0,1,3,1152.0,SINGLE_FAMILY,FOR_SALE,True,False,False,True,False,False,USD,USA,184300.0,4000.0,sqft
62877207,4635 Pendall Dr,20744,Fort Washington,MD,38.78489,-76.92998,539999.0,3,4,1409.0,SINGLE_FAMILY,FOR_SALE,,False,False,True,False,False,USD,USA,504400.0,0.6983471074380165,acres
37378494,9616 Caltor Ln,20744,Fort Washington,MD,38.75822,-76.97535,415000.0,3,4,2688.0,SINGLE_FAMILY,FOR_SALE,,False,False,True,False,False,USD,USA,417500.0,10000.0,sqft
37471125,4111 Henson Ln,20748,Temple Hills,MD,38.8038,-76.93597,389000.0,1,3,1024.0,SINGLE_FAMILY,FOR_SALE,,False,False,True,False,False,USD,USA,228900.0,9996.0,sqft
37356483,7405 Parkwood St,20784,Hyattsville,MD,38.94173,-76.88353,429999.0,2,5,1820.0,SINGLE_FAMILY,FOR_SALE,,False,False,True,False,False,USD,USA,258600.0,6417.0,sqft
37486355,7626 Greenleaf Rd,20785,Landover,MD,38.92017,-76.87429,328000.0,1,3,5445.0,SINGLE_FAMILY,FOR_SALE,,False,False,True,False,False,USD,USA,220300.0,0.13,sqft
488570,6418 N Capitol St NW,20012,Washington,DC,38.96784,-77.00929,490000.0,2,3,1509.0,SINGLE_FAMILY,FOR_SALE,,False,False,True,False,False,USD,USA,445200.0,1771.0,sqft
37398441,1524 Ritchie Rd,20747,District Heights,MD,38.86771,-76.85893,399900.0,2,3,811.0,SINGLE_FAMILY,FOR_SALE,,False,False,True,False,False,USD,USA,253100.0,0.41724058769513317,acres
37430972,9602 Juliette Dr,20735,Clinton,MD,38.75739,-76.90573,435000.0,3,3,2125.0,SINGLE_FAMILY,FOR_SALE,,False,False,True,False,False,USD,USA,352500.0,0.3879247015610652,acres
37562813,4915 Tecumseh St,20740,College Park,MD,38.99697,-76.92514,379000.0,1,2,1200.0,SINGLE_FAMILY,FOR_SALE,,False,False,True,False,False,USD,USA,302800.0,10875.0,sqft
37428010,5604 Devon Ct,20748,Temple Hills,MD,38.79257,-76.91144,499999.0,3,4,2342.0,SINGLE_FAMILY,FOR_SALE,,False,False,True,False,False,USD,USA,360200.0,0.26131772268135905,acres
37464889,7524 Burgess Ln,20744,Fort Washington,MD,38.78575,-76.94062,325000.0,1,3,1430.0,SINGLE_FAMILY,FOR_SALE,,False,False,True,False,False,USD,USA,281800.0,0.4559917355371901,acres
37396165,4523 Quid Pl,20743,Capitol Heights,MD,38.87071,-76.93043,349000.0,2,4,1146.0,SINGLE_FAMILY,FOR_SALE,,False,False,True,False,False,USD,USA,262800.0,6890.0,sqft
37344329,10100 51st Ave,20740,College Park,MD,39.01933,-76.9166,469000.0,2,4,1232.0,SINGLE_FAMILY,FOR_SALE,,False,False,True,False,False,USD,USA,437200.0,8776.0,sqft
37511456,9705 Tam O Shanter Dr,20772,Upper Marlboro,MD,38.75666,-76.80189,459500.0,3,4,2030.0,SINGLE_FAMILY,FOR_SALE,True,False,False,True,False,False,USD,USA,374900.0,0.3443526170798898,acres
37524648,7705 25th Ave,20783,Hyattsville,MD,38.98366,-76.96684,370000.0,2,5,1152.0,SINGLE_FAMILY,FOR_SALE,,False,False,True,False,False,USD,USA,330100.0,3910.0,sqft
37373698,1704 Portland Ave,20744,Fort Washington,MD,38.75772,-76.97878,465000.0,3,3,1344.0,SINGLE_FAMILY,FOR_SALE,,False,False,True,False,False,USD,USA,413200.0,10191.0,sqft
37392020,4708 Brinkley Rd,20748,Temple Hills,MD,38.802,-76.92585,464998.0,3,4,1242.0,SINGLE_FAMILY,FOR_SALE,,False,False,True,False,False,USD,USA,298800.0,0.27176308539944904,acres
37435569,6015 Sellner Ln,20735,Clinton,MD,38.77865,-76.90194,510000.0,3,4,1844.0,SINGLE_FAMILY,FOR_SALE,,False,False,True,False,False,USD,USA,493500.0,0.27865013774104685,acres
37552618,4505 Havelock Rd,20706,Lanham,MD,38.9517,-76.85098,499900.0,3,4,2352.0,SINGLE_FAMILY,FOR_SALE,,False,False,True,False,False,USD,USA,290000.0,8450.0,sqft
37519333,8507 14th Ave,20783,Hyattsville,MD,38.99781,-76.9819,549900.0,3,4,2581.0,SINGLE_FAMILY,FOR_SALE,,False,False,True,False,False,USD,USA,328500.0,6398.0,sqft
37395929,2820 Walters Ln,20747,District Heights,MD,38.8501,-76.89064,439995.0,3,5,2140.0,SINGLE_FAMILY,FOR_SALE,,False,False,True,False,False,USD,USA,238600.0,0.25826446280991733,acres
37489849,7262 Mahogany Dr #6,20785,Landover,MD,38.90216,-76.88019,299999.0,2,3,1205.0,SINGLE_FAMILY,FOR_SALE,,False,False,True,False,False,USD,USA,205000.0,3284.0,sqft
37394924,6012 Wesson Dr,20746,Suitland,MD,38.82433,-76.90224,449998.0,4,5,1740.0,SINGLE_FAMILY,FOR_SALE,,False,False,True,False,False,USD,USA,275800.0,6000.0,sqft
37427152,5305 Chesterfield Dr,20748,Temple Hills,MD,38.78812,-76.91529,464900.0,3,5,1874.0,SINGLE_FAMILY,FOR_SALE,,False,False,True,False,False,USD,USA,337400.0,0.27548209366391185,acres
515186,5549 Central Ave SE,20019,Washington,DC,38.886086,-76.92008,450000.0,2,2,1200.0,SINGLE_FAMILY,FOR_SALE,,False,False,True,False,False,USD,USA,248890.0,2445.0,sqft
37450175,9745 Wyman Way,20772,Upper Marlboro,MD,38.76138,-76.82926,420000.0,3,3,1276.0,SINGLE_FAMILY,FOR_SALE,,False,False,True,False,False,USD,USA,404900.0,10447.0,sqft
37478121,7510 Hawthorne St,20785,Landover,MD,38.9254,-76.87742,349000.0,2,3,1440.0,SINGLE_FAMILY,FOR_SALE,,False,False,True,False,False,USD,USA,277200.0,5667.0,sqft
37555135,5807 Nystrom St,20784,Hyattsville,MD,38.96194,-76.87937,499999.0,3,5,2280.0,SINGLE_FAMILY,FOR_SALE,,False,False,True,False,False,USD,USA,345600.0,8163.0,sqft
37529516,4506 Russell Ave,20712,Mount Rainier,MD,38.94532,-76.97252,450000.0,3,5,1767.0,SINGLE_FAMILY,FOR_SALE,,False,False,True,False,False,USD,USA,403600.0,8940.0,sqft
37457465,7510 Lenham Dr,20744,Fort Washington,MD,38.78425,-76.9545,474900.0,3,5,1599.0,SINGLE_FAMILY,FOR_SALE,,False,False,True,False,False,USD,USA,336900.0,10000.0,sqft
495449,4909 7th Pl NE,20017,Washington,DC,38.94859,-76.99556,520000.0,2,3,1638.0,SINGLE_FAMILY,FOR_SALE,,False,False,True,False,False,USD,USA,491050.0,1898.0,sqft
37472790,1100 Falconett Ct,20774,Upper Marlboro,MD,38.87381,-76.83876,424900.0,3,4,1968.0,SINGLE_FAMILY,FOR_SALE,,False,False,True,False,False,USD,USA,325900.0,0.3018135904499541,acres
37561162,9406 48th Pl,20740,College Park,MD,39.00804,-76.92679,525000.0,2,3,2156.0,SINGLE_FAMILY,FOR_SALE,,False,False,True,False,False,USD,USA,416200.0,9830.0,sqft
37287838,2304 Darrow St,20902,Silver Spring,MD,39.02354,-77.04908,545000.0,2,3,1974.0,SINGLE_FAMILY,FOR_SALE,,False,False,True,False,False,USD,USA,412333.0,8388.0,sqft
37537504,308 70th Pl,20743,Capitol Heights,MD,38.89361,-76.90031,400000.0,2,6,1780.0,SINGLE_FAMILY,FOR_SALE,,False,False,True,False,False,USD,USA,229300.0,5000.0,sqft
37383163,3603 Dianna Rd,20746,Suitland,MD,38.83916,-76.91977,360000.0,2,4,1040.0,SINGLE_FAMILY,FOR_SALE,,False,False,True,False,False,USD,USA,249400.0,9269.0,sqft
37424688,9540 Sherwood Dr,20772,Upper Marlboro,MD,38.79286,-76.83957,450000.0,2,4,2144.0,SINGLE_FAMILY,FOR_SALE,,False,False,True,False,False,USD,USA,373300.0,0.46035353535353535,acres
68071881,710 Eastern Ave NE,20019,Washington,DC,38.89891,-76.91745,299000.0,2,3,1674.0,SINGLE_FAMILY,FOR_SALE,,False,False,True,False,False,USD,USA,403990.0,4197.0,sqft
516171,4561 C St SE,20019,Washington,DC,38.8863,-76.93743,330000.0,2,3,1344.0,SINGLE_FAMILY,FOR_SALE,,False,False,True,False,False,USD,USA,362790.0,6159.0,sqft
37532639,5031 Emo St,20743,Capitol Heights,MD,38.87775,-76.91965,299900.0,2,3,952.0,SINGLE_FAMILY,FOR_SALE,,False,False,True,False,False,USD,USA,191500.0,4000.0,sqft
37522079,2006 Pelden Rd,20783,Hyattsville,MD,38.99544,-76.97476,445000.0,2,3,1842.0,SINGLE_FAMILY,FOR_SALE,,False,False,True,False,False,USD,USA,339600.0,6500.0,sqft
527552,756 Upsal St SE,20032,Washington,DC,38.83989,-76.99445,469900.0,3,4,1744.0,SINGLE_FAMILY,FOR_SALE,,False,False,True,False,False,USD,USA,420830.0,2386.0,sqft
2054522842,5821 1/2 Field Pl NE,20019,Washington,DC,38.89792,-76.91777,549000.0,4,4,2244.0,SINGLE_FAMILY,FOR_SALE,,False,False,True,False,False,USD,USA,,2500.0,sqft
37458476,3624 Dixon St,20748,Temple Hills,MD,38.83928,-76.96452,319900.0,2,3,1188.0,SINGLE_FAMILY,FOR_SALE,,False,False,True,False,False,USD,USA,241000.0,3720.0,sqft
37523320,5407 14th Pl,20782,Hyattsville,MD,38.95529,-76.98593,550000.0,2,5,1320.0,SINGLE_FAMILY,FOR_SALE,,False,False,True,False,False,USD,USA,369100.0,6095.0,sqft
37358050,4906 56th Pl,20781,Hyattsville,MD,38.94478,-76.92122,399900.0,2,4,962.0,SINGLE_FAMILY,FOR_SALE,,False,False,True,False,False,USD,USA,253700.0,5798.0,sqft
37341228,6806 New Hampshire Ave,20912,Takoma Park,MD,38.97376,-76.99648,550000.0,2,2,1400.0,SINGLE_FAMILY,FOR_SALE,,False,False,True,False,False,USD,USA,438333.0,9780.0,sqft
511161,504 45th St NE,20019,Washington,DC,38.89563,-76.938,270000.0,2,2,1054.0,SINGLE_FAMILY,FOR_SALE,,False,False,True,False,False,USD,USA,333620.0,1998.0,sqft
37382581,1703 Arcadia Ave,20743,Capitol Heights,MD,38.86687,-76.94108,375000.0,2,3,2220.0,SINGLE_FAMILY,FOR_SALE,,False,False,True,False,False,USD,USA,287000.0,7421.0,sqft
37455279,4109 Beachcraft Ct,20748,Temple Hills,MD,38.80202,-76.93644,459900.0,3,4,1232.0,SINGLE_FAMILY,FOR_SALE,,False,False,True,False,False,USD,USA,364400.0,0.2726354453627181,acres
528014,347 Parkland Pl SE,20032,Washington,DC,38.84449,-76.99967,325000.0,2,3,1440.0,SINGLE_FAMILY,FOR_SALE,,False,False,True,False,False,USD,USA,286140.0,2000.0,sqft
37505682,9604 Tiberias Dr,20772,Upper Marlboro,MD,38.75862,-76.80439,404000.0,3,3,1100.0,SINGLE_FAMILY,FOR_SALE,,False,False,True,False,False,USD,USA,376300.0,10000.0,sqft
37542796,5303 59th Ave,20737,Riverdale,MD,38.95358,-76.9159,449900.0,2,3,936.0,SINGLE_FAMILY,FOR_SALE,,False,False,True,False,False,USD,USA,272700.0,0.27766299357208446,acres
37524253,1607 Merrimac Dr,20783,Hyattsville,MD,38.9913,-76.97823,429999.0,2,3,910.0,SINGLE_FAMILY,FOR_SALE,,False,False,True,False,False,USD,USA,332800.0,7296.0,sqft
37353221,6231 Landover Rd,20785,Landover,MD,38.93292,-76.90898,440000.0,3,4,1244.0,SINGLE_FAMILY,FOR_SALE,,False,False,True,False,False,USD,USA,345200.0,6056.0,sqft
37427680,7210 McMillen Dr,20735,Clinton,MD,38.7813,-76.88064,475000.0,3,4,2120.0,SINGLE_FAMILY,FOR_SALE,,False,False,True,False,False,USD,USA,430800.0,9856.0,sqft
37397247,2410 Keating St,20748,Temple Hills,MD,38.83462,-76.95397,329900.0,2,2,1248.0,SINGLE_FAMILY,FOR_SALE,,False,False,True,False,False,USD,USA,183800.0,3675.0,sqft
37528863,2100 Quebec St,20783,Hyattsville,MD,38.99584,-76.97281,479900.0,2,4,1201.0,SINGLE_FAMILY,FOR_SALE,,False,False,True,False,False,USD,USA,268600.0,5890.0,sqft
529865,138 Forrester St SW,20032,Washington,DC,38.82504,-77.011,375999.0,2,2,1255.0,SINGLE_FAMILY,FOR_SALE,,False,False,True,False,False,USD,USA,256280.0,2464.0,sqft
37395403,7001 Gateway Blvd,20747,District Heights,MD,38.85823,-76.88543,365000.0,2,4,1260.0,SINGLE_FAMILY,FOR_SALE,,False,False,True,False,False,USD,USA,268700.0,6980.0,sqft
37277138,816 Orange Dr,20901,Silver Spring,MD,39.02928,-77.02413,537000.0,2,3,1615.0,SINGLE_FAMILY,FOR_SALE,,False,False,True,False,False,USD,USA,389533.0,6018.0,sqft
37532317,338 Brightseat Rd,20785,Landover,MD,38.89376,-76.85129,399000.0,2,3,1075.0,SINGLE_FAMILY,FOR_SALE,,False,False,True,False,False,USD,USA,249800.0,0.5266758494031222,acres
37373108,3020 Alderton Ave,20744,Fort Washington,MD,38.76957,-76.95358,549900.0,2,6,2044.0,SINGLE_FAMILY,FOR_SALE,,False,False,True,False,False,USD,USA,266900.0,10000.0,sqft
37387617,5103 Acorn Dr,20748,Temple Hills,MD,38.79955,-76.91918,475000.0,3,6,2592.0,SINGLE_FAMILY,FOR_SALE,,False,False,True,False,False,USD,USA,307400.0,10685.0,sqft
51926203,6014 Rixey Dr,22303,Alexandria,VA,38.7864,-77.07444,528000.0,2,4,1224.0,SINGLE_FAMILY,FOR_SALE,,False,False,True,False,False,USD,USA,444600.0,6352.0,sqft
37398437,4817 Henderson Rd,20748,Temple Hills,MD,38.816,-76.92465,442000.0,3,5,1372.0,SINGLE_FAMILY,FOR_SALE,,False,False,True,False,False,USD,USA,299500.0,0.3029843893480257,acres
37469669,4106 22nd Ave,20748,Temple Hills,MD,38.83402,-76.96177,430000.0,3,4,2784.0,SINGLE_FAMILY,FOR_SALE,,False,False,True,False,False,USD,USA,349400.0,7912.0,sqft
37320689,8909 Glenville Rd,20901,Silver Spring,MD,39.00231,-76.99671,529000.0,3,5,2128.0,SINGLE_FAMILY,FOR_SALE,,False,False,True,False,False,USD,USA,436367.0,6413.0,sqft
37506733,9501 Tiberias Dr,20772,Upper Marlboro,MD,38.76036,-76.80584,439500.0,3,4,1100.0,SINGLE_FAMILY,FOR_SALE,True,False,False,True,False,False,USD,USA,412800.0,10217.0,sqft
37518926,1914 Ruatan St,20783,Hyattsville,MD,38.9971,-76.97612,435000.0,3,3,1195.0,SINGLE_FAMILY,FOR_SALE,,False,False,True,False,False,USD,USA,347200.0,0.2775482093663912,acres
37372491,9601 Rosevale St,20744,Fort Washington,MD,38.75627,-76.96286,489900.0,3,4,2150.0,SINGLE_FAMILY,FOR_SALE,,False,False,True,False,False,USD,USA,325700.0,10465.0,sqft
515986,4686 A St SE,20019,Washington,DC,38.88815,-76.93366,285000.0,2,3,1181.0,SINGLE_FAMILY,FOR_SALE,,False,False,True,False,False,USD,USA,288820.0,2264.0,sqft
512822,805 50th Pl NE,20019,Washington,DC,38.90025,-76.92833,409990.0,1,2,1114.0,SINGLE_FAMILY,FOR_SALE,,False,False,True,False,False,USD,USA,265100.0,2205.0,sqft
37489647,3311 E Glenreed Ct,20706,Lanham,MD,38.93323,-76.86183,335000.0,3,3,1192.0,SINGLE_FAMILY,FOR_SALE,,False,False,True,False,False,USD,USA,244500.0,3435.0,sqft
37476763,8616 Glenarden Pkwy,20706,Lanham,MD,38.93199,-76.86382,540000.0,4,4,1820.0,SINGLE_FAMILY,FOR_SALE,,False,False,True,False,False,USD,USA,305500.0,8712.0,sqft
37396293,3504 Keystone Manor Pl,20747,District Heights,MD,38.84069,-76.89054,370000.0,3,4,1220.0,SINGLE_FAMILY,FOR_SALE,True,False,False,True,False,False,USD,USA,324400.0,6988.0,sqft
37481164,301 Hyannis Ct,20774,Upper Marlboro,MD,38.88521,-76.81733,475000.0,3,3,1728.0,SINGLE_FAMILY,FOR_SALE,,False,False,True,False,False,USD,USA,317100.0,0.2644398530762167,acres
511428,4408 Clay St NE,20019,Washington,DC,38.89422,-76.93841,449000.0,2,3,1292.0,SINGLE_FAMILY,FOR_SALE,,False,False,True,False,False,USD,USA,311380.0,2281.0,sqft
513264,857 51st St NE,20019,Washington,DC,38.90153,-76.92639,409000.0,2,3,810.0,SINGLE_FAMILY,FOR_SALE,,False,False,True,False,False,USD,USA,259860.0,1760.0,sqft
37492423,12102 Mackell Ln,20715,Bowie,MD,38.9833,-76.75575,489900.0,2,4,1856.0,SINGLE_FAMILY,FOR_SALE,True,False,False,True,False,False,USD,USA,384300.0,9438.0,sqft
37380483,2516 Easton St,20748,Temple Hills,MD,38.84035,-76.95716,310000.0,1,2,1543.0,SINGLE_FAMILY,FOR_SALE,,False,False,True,False,False,USD,USA,260100.0,6900.0,sqft
37384421,5705 Center Dr,20748,Temple Hills,MD,38.811,-76.91184,425000.0,3,4,2604.0,SINGLE_FAMILY,FOR_SALE,,False,False,True,False,False,USD,USA,296100.0,10064.0,sqft
37424738,7905 Green St,20735,Clinton,MD,38.78005,-76.85985,380000.0,2,3,1700.0,SINGLE_FAMILY,FOR_SALE,,False,False,True,False,False,USD,USA,308000.0,0.4595959595959596,acres
37496383,12813 7th St,20720,Bowie,MD,39.00957,-76.78406,479927.0,3,5,1548.0,SINGLE_FAMILY,FOR_SALE,,False,False,True,False,False,USD,USA,362100.0,5227.2,sqft
37546323,5116 Aldershot Dr,20706,Lanham,MD,38.96124,-76.8515,505000.0,3,3,1672.0,SINGLE_FAMILY,FOR_SALE,,False,False,True,False,False,USD,USA,372800.0,6825.0,sqft
37509992,13502 Old Marlboro Pike,20772,Upper Marlboro,MD,38.81644,-76.77205,439990.0,3,3,1550.0,SINGLE_FAMILY,FOR_SALE,,False,False,True,False,False,USD,USA,362500.0,0.3677685950413223,acres
37534514,5813 Dade St,20743,Capitol Heights,MD,38.89091,-76.90608,479990.0,3,5,1478.0,SINGLE_FAMILY,FOR_SALE,,False,False,True,False,False,USD,USA,369700.0,5000.0,sqft
37351254,6406 Osborn Rd,20784,Hyattsville,MD,38.93628,-76.90333,477700.0,2,4,1877.0,SINGLE_FAMILY,FOR_SALE,,False,False,True,False,False,USD,USA,333300.0,6839.0,sqft
37478070,7724 Allendale Dr,20785,Landover,MD,38.91442,-76.87219,312900.0,2,3,1320.0,SINGLE_FAMILY,FOR_SALE,,False,False,True,False,False,USD,USA,220100.0,3111.0,sqft
37354224,7002 Taylor Ter,20784,Hyattsville,MD,38.94151,-76.89238,444000.0,3,3,1608.0,SINGLE_FAMILY,FOR_SALE,,False,False,True,False,False,USD,USA,281800.0,6600.0,sqft
511054,4400 Nannie Helen Burroughs Ave NE,20019,Washington,DC,38.90066,-76.93891,369900.0,2,3,1853.0,SINGLE_FAMILY,FOR_SALE,,False,False,True,False,False,USD,USA,408890.0,4057.0,sqft
515811,5154 H St SE,20019,Washington,DC,38.87862,-76.9283,399999.0,3,6,1683.0,SINGLE_FAMILY,FOR_SALE,,False,False,True,False,False,USD,USA,319960.0,3425.0,sqft
37397601,6112 Rayburn Dr,20748,Temple Hills,MD,38.80598,-76.9272,489999.0,3,5,1827.0,SINGLE_FAMILY,FOR_SALE,,False,False,True,False,False,USD,USA,423700.0,10091.0,sqft
37388186,2606 Keith St,20748,Temple Hills,MD,38.83498,-76.95068,326000.0,3,3,1156.0,SINGLE_FAMILY,FOR_SALE,,False,False,True,False,False,USD,USA,217800.0,5558.0,sqft
37392370,4005 24th Pl,20748,Temple Hills,MD,38.83494,-76.95534,330000.0,3,3,1478.0,SINGLE_FAMILY,FOR_SALE,,False,False,True,False,False,USD,USA,204700.0,8821.0,sqft
37481090,1526 7th St,20706,Lanham,MD,38.932358,-76.85388,400000.0,2,4,1728.0,SINGLE_FAMILY,FOR_SALE,,False,False,True,False,False,USD,USA,221200.0,4320.0,sqft
517298,1525 Fort Davis St SE,20020,Washington,DC,38.86906,-76.9467,320000.0,2,2,1479.0,SINGLE_FAMILY,FOR_SALE,,False,False,True,False,False,USD,USA,289310.0,2315.0,sqft
37551772,5528 Cordona St,20706,Lanham,MD,38.95935,-76.85389,449900.0,3,4,2080.0,SINGLE_FAMILY,FOR_SALE,,False,False,True,False,False,USD,USA,277300.0,6919.0,sqft
37429963,3511 Wayneswood Rd,20744,Fort Washington,MD,38.76345,-76.94625,415000.0,2,3,1540.0,SINGLE_FAMILY,FOR_SALE,,False,False,True,False,False,USD,USA,327800.0,0.27548209366391185,acres
37534722,4827 Gunther St,20743,Capitol Heights,MD,38.87511,-76.92433,310000.0,2,3,962.0,SINGLE_FAMILY,FOR_SALE,,False,False,True,False,False,USD,USA,257500.0,6482.0,sqft
37429934,3609 Wayneswood Rd,20744,Fort Washington,MD,38.76292,-76.9443,465000.0,2,4,976.0,SINGLE_FAMILY,FOR_SALE,,False,False,True,False,False,USD,USA,309800.0,10294.0,sqft
37423580,9407 Piscataway Rd,20735,Clinton,MD,38.76185,-76.91568,445000.0,3,5,1212.0,SINGLE_FAMILY,FOR_SALE,,False,False,True,False,False,USD,USA,371200.0,0.35702479338842974,acres
37350309,6609 Furman Pkwy,20737,Riverdale,MD,38.95146,-76.90287,405000.0,2,3,1052.0,SINGLE_FAMILY,FOR_SALE,,False,False,True,False,False,USD,USA,314000.0,8037.0,sqft
37392137,6505 Elmhurst St,20747,District Heights,MD,38.85814,-76.8942,389900.0,2,5,2228.0,SINGLE_FAMILY,FOR_SALE,,False,False,True,False,False,USD,USA,279100.0,7000.0,sqft
37385342,7107 Earl Dr,20747,District Heights,MD,38.83777,-76.88429,469000.0,4,5,1814.0,SINGLE_FAMILY,FOR_SALE,,False,False,True,False,False,USD,USA,308000.0,10280.0,sqft
37492394,13214 11th St,20715,Bowie,MD,39.00705,-76.77454,470000.0,3,4,2100.0,SINGLE_FAMILY,FOR_SALE,,False,False,True,False,False,USD,USA,461600.0,5000.0,sqft
512647,5074 Jay St NE,20019,Washington,DC,38.90201,-76.92733,419000.0,2,3,810.0,SINGLE_FAMILY,FOR_SALE,,False,False,True,False,False,USD,USA,263110.0,2643.0,sqft
37356570,5420 Newby Ave,20737,Riverdale,MD,38.95465,-76.90321,395000.0,2,4,1092.0,SINGLE_FAMILY,FOR_SALE,,False,False,True,False,False,USD,USA,275100.0,5664.0,sqft
37428367,6304 Florence Ct,20735,Clinton,MD,38.75317,-76.89619,475000.0,3,3,950.0,SINGLE_FAMILY,FOR_SALE,,False,False,True,False,False,USD,USA,346100.0,10000.0,sqft
493998,5743 5th St NE,20011,Washington,DC,38.95995,-77.00114,550000.0,2,2,1264.0,SINGLE_FAMILY,FOR_SALE,,False,False,True,False,False,USD,USA,551480.0,2346.0,sqft
2054607768,4970 Just St NE #4972,20019,Washington,DC,38.89142,-76.93794,359900.0,2,2,1366.0,SINGLE_FAMILY,FOR_SALE,True,False,False,True,False,False,USD,USA,,2790.0,sqft
37539870,1208 Drum Ave,20743,Capitol Heights,MD,38.87444,-76.9283,285000.0,1,2,725.0,SINGLE_FAMILY,FOR_SALE,,False,False,True,False,False,USD,USA,171900.0,4000.0,sqft
37552665,8503 Oliver St,20784,Hyattsville,MD,38.96578,-76.87032,515000.0,2,3,1971.0,SINGLE_FAMILY,FOR_SALE,,False,False,True,False,False,USD,USA,299800.0,6370.0,sqft
2054783887,4005 Se #E,20019,Washington,DC,38.88263,-76.94616,459000.0,2,3,1702.0,SINGLE_FAMILY,FOR_SALE,,False,False,True,False,False,USD,USA,,2550.0,sqft
514802,128 56th St SE,20019,Washington,DC,38.88682,-76.92085,500000.0,3,3,1634.0,SINGLE_FAMILY,FOR_SALE,,False,False,True,False,False,USD,USA,316280.0,2750.0,sqft
37399049,1822 Campbell Dr,20746,Suitland,MD,38.86418,-76.92628,425000.0,2,4,1802.0,SINGLE_FAMILY,FOR_SALE,,False,False,True,False,False,USD,USA,284700.0,0.3753443526170799,acres
529574,604 Galveston Pl SE,20032,Washington,DC,38.82465,-76.99901,470000.0,3,3,1506.0,SINGLE_FAMILY,FOR_SALE,,False,False,True,False,False,USD,USA,244630.0,2160.0,sqft
37533974,1113 Hybrid Ave,20743,Capitol Heights,MD,38.87472,-76.92511,310000.0,2,4,1040.0,SINGLE_FAMILY,FOR_SALE,,False,False,True,False,False,USD,USA,295700.0,0.38468778696051426,acres
516984,1572 41st St SE,20020,Washington,DC,38.86667,-76.94355,465000.0,2,4,1504.0,SINGLE_FAMILY,FOR_SALE,,False,False,True,False,False,USD,USA,302320.0,2304.0,sqft
37386466,6325 Gateway Blvd,20747,District Heights,MD,38.85515,-76.89697,379900.0,3,4,1479.0,SINGLE_FAMILY,FOR_SALE,,False,False,True,False,False,USD,USA,266700.0,6750.0,sqft
37409831,12811 Woodmore Rd,20721,Bowie,MD,38.9262,-76.78242,515000.0,2,4,1596.0,SINGLE_FAMILY,FOR_SALE,,False,False,True,False,False,USD,USA,312800.0,0.45899908172635445,acres
37488732,1919 Vermont Ave,20785,Landover,MD,38.91709,-76.89042,430000.0,3,3,2360.0,SINGLE_FAMILY,FOR_SALE,,False,False,True,False,False,USD,USA,315200.0,5000.0,sqft
525727,2329 Pomeroy Rd SE,20020,Washington,DC,38.85749,-76.98531,410000.0,2,2,1098.0,SINGLE_FAMILY,FOR_SALE,,False,False,True,False,False,USD,USA,232990.0,1408.0,sqft
37385868,1527 Ruston Ave,20743,Capitol Heights,MD,38.86795,-76.92031,320000.0,2,3,1440.0,SINGLE_FAMILY,FOR_SALE,,False,False,True,False,False,USD,USA,215900.0,6000.0,sqft
516002,4636 A St SE,20019,Washington,DC,38.88893,-76.93478,429000.0,3,3,1108.0,SINGLE_FAMILY,FOR_SALE,,False,False,True,False,False,USD,USA,285200.0,4941.0,sqft
37386380,5916 John Adams Dr,20748,Temple Hills,MD,38.80043,-76.92004,434900.0,3,5,1296.0,SINGLE_FAMILY,FOR_SALE,,False,False,True,False,False,USD,USA,296000.0,0.2633608815426997,acres
37503815,12903 7th St,20720,Bowie,MD,39.00962,-76.78367,475000.0,2,3,1920.0,SINGLE_FAMILY,FOR_SALE,,False,False,True,False,False,USD,USA,436100.0,5000.0,sqft
37548872,8902 Bold St,20774,Upper Marlboro,MD,38.93574,-76.85424,419999.0,2,4,936.0,SINGLE_FAMILY,FOR_SALE,,False,False,True,False,False,USD,USA,239600.0,7332.0,sqft
37548537,6601 Rycroft Ave,20784,Hyattsville,MD,38.96767,-76.88644,459900.0,3,4,984.0,SINGLE_FAMILY,FOR_SALE,True,False,False,True,False,False,USD,USA,321100.0,7465.0,sqft
37507087,4918 Ashford Dr,20772,Upper Marlboro,MD,38.82102,-76.81509,460000.0,3,5,1144.0,SINGLE_FAMILY,FOR_SALE,,False,False,True,False,False,USD,USA,364200.0,10000.0,sqft
37414139,12815 Whiteholm Dr,20774,Upper Marlboro,MD,38.89806,-76.78286,459900.0,3,5,1352.0,SINGLE_FAMILY,FOR_SALE,,False,False,True,False,False,USD,USA,405300.0,8881.0,sqft
37385527,2704 Ritchie Rd,20747,District Heights,MD,38.85176,-76.87048,344999.0,2,4,1080.0,SINGLE_FAMILY,FOR_SALE,,False,False,True,False,False,USD,USA,276900.0,6400.0,sqft
37531780,6410 K St,20743,Capitol Heights,MD,38.9026,-76.90751,515000.0,3,4,2806.0,SINGLE_FAMILY,FOR_SALE,,False,False,True,False,False,USD,USA,397000.0,9375.0,sqft
529582,611 Forrester St SE,20032,Washington,DC,38.82484,-76.99863,454900.0,3,3,1588.0,SINGLE_FAMILY,FOR_SALE,,False,False,True,False,False,USD,USA,242280.0,1760.0,sqft
37559560,9607 47th Pl,20740,College Park,MD,39.01181,-76.92719,549988.0,3,6,1312.0,SINGLE_FAMILY,FOR_SALE,,False,False,True,False,False,USD,USA,501400.0,6250.0,sqft
37537457,702 Mentor Ave,20743,Capitol Heights,MD,38.880363,-76.91759,370000.0,3,5,2000.0,SINGLE_FAMILY,FOR_SALE,,False,False,True,False,False,USD,USA,315700.0,4000.0,sqft
37398726,6512 Elmhurst St,20747,District Heights,MD,38.85874,-76.8942,390000.0,2,6,1287.0,SINGLE_FAMILY,FOR_SALE,,False,False,True,False,False,USD,USA,273200.0,6450.0,sqft
528650,138 Mississippi Ave SE,20032,Washington,DC,38.83422,-77.004524,448000.0,2,3,1642.0,SINGLE_FAMILY,FOR_SALE,,False,False,True,False,False,USD,USA,303100.0,4000.0,sqft
37354878,4009 74th Ave,20784,Hyattsville,MD,38.94168,-76.88587,439999.0,3,5,1170.0,SINGLE_FAMILY,FOR_SALE,,False,False,True,False,False,USD,USA,250100.0,7554.0,sqft
529497,791 Barnaby St SE,20032,Washington,DC,38.82879,-76.99489,475000.0,3,3,1599.0,SINGLE_FAMILY,FOR_SALE,,False,False,True,False,False,USD,USA,459600.0,2475.0,sqft
37386825,7504 Martha St,20747,District Heights,MD,38.84948,-76.8777,438800.0,2,3,1461.0,SINGLE_FAMILY,FOR_SALE,,False,False,True,False,False,USD,USA,310500.0,9675.0,sqft
37397626,3415 Aberdeen St,20746,Suitland,MD,38.84569,-76.9474,424900.0,3,5,2129.0,SINGLE_FAMILY,FOR_SALE,,False,False,True,False,False,USD,USA,229100.0,8100.0,sqft
511641,4709 Clay St NE,20019,Washington,DC,38.89333,-76.93413,545000.0,2,4,1717.0,SINGLE_FAMILY,FOR_SALE,,False,False,True,False,False,USD,USA,309490.0,2344.0,sqft
515500,5105 Ayers Pl SE,20019,Washington,DC,38.88814,-76.9274,480000.0,2,3,1920.0,SINGLE_FAMILY,FOR_SALE,,False,False,True,False,False,USD,USA,333740.0,4000.0,sqft
515022,69 55th St SE,20019,Washington,DC,38.88794,-76.92265,495000.0,2,3,1909.0,SINGLE_FAMILY,FOR_SALE,,False,False,True,False,False,USD,USA,330820.0,2863.0,sqft
512596,926 52nd St NE,20019,Washington,DC,38.90325,-76.92539,419999.0,2,2,1215.0,SINGLE_FAMILY,FOR_SALE,,False,False,True,False,False,USD,USA,333390.0,,
513810,210 Division Ave NE,20019,Washington,DC,38.8924,-76.92805,425000.0,3,3,1930.0,SINGLE_FAMILY,FOR_SALE,,False,False,True,False,False,USD,USA,374450.0,3760.0,sqft
514614,6114 Banks Pl NE,20019,Washington,DC,38.89216,-76.91317,449500.0,2,2,1120.0,SINGLE_FAMILY,FOR_SALE,,False,False,True,False,False,USD,USA,317140.0,1222.0,sqft
37555491,8904 Bold St,20774,Upper Marlboro,MD,38.93578,-76.854,424950.0,2,4,936.0,SINGLE_FAMILY,FOR_SALE,,False,False,True,False,False,USD,USA,239700.0,7749.0,sqft
529016,850 Yuma St SE,20032,Washington,DC,38.83223,-76.9929,469500.0,2,3,1443.0,SINGLE_FAMILY,FOR_SALE,,False,False,True,False,False,USD,USA,268240.0,3252.0,sqft
511289,515 45th St NE,20019,Washington,DC,38.89577,-76.93749,435000.0,2,2,1216.0,SINGLE_FAMILY,FOR_SALE,,False,False,True,False,False,USD,USA,253940.0,2944.0,sqft
68071830,3222 4th St SE,20032,Washington,DC,38.84213,-77.0003,435000.0,3,5,1208.0,SINGLE_FAMILY,FOR_SALE,,False,False,True,False,False,USD,USA,394340.0,4892.0,sqft
37398731,3309 Springdale Ave,20747,District Heights,MD,38.844,-76.87523,370000.0,1,3,1632.0,SINGLE_FAMILY,FOR_SALE,,False,False,True,False,False,USD,USA,253100.0,9583.0,sqft
2056258436,"The Cypress Model Plan, District Towns at St. Elizabeths East",20032,Washington,DC,38.845356,-76.9936,549990.0,4,4,1210.0,SINGLE_FAMILY,FOR_SALE,,False,False,True,True,False,USD,USA,,,
511288,513 45th St NE,20019,Washington,DC,38.89573,-76.93749,435000.0,2,2,1216.0,SINGLE_FAMILY,FOR_SALE,,False,False,True,False,False,USD,USA,253040.0,2857.0,sqft
